{"type":"FeatureCollection","features":[{"type":"Feature","properties":{"Name":"Lester B. Pearson International Airport","City":"Toronto","Country":"Canada","Code":"YYZ","Region":"America/Toronto"},"geometry":{"type":"Point","coordinates":[-79.63059998,43.67720032]}},{"type":"Feature","properties":{"Name":"La Guardia Airport","City":"New York","Country":"United States","Code":"LGA","Region":"America/New_York"},"geometry":{"type":"Point","coordinates":[-73.87259674,40.77719879]}},{"type":"Feature","properties":{"Name":"John F Kennedy International Airport","City":"New York","Country":"United States","Code":"JFK","Region":"America/New_York"},"geometry":{"type":"Point","coordinates":[-73.77890015,40.63980103]}},{"type":"Feature","properties":{"Name":"Tokyo Haneda International Airport","City":"Tokyo","Country":"Japan","Code":"HND","Region":"Asia/Tokyo"},"geometry":{"type":"Point","coordinates":[139.779999,35.552299]}},{"type":"Feature","properties":{"Name":"Atatürk International Airport","City":"Istanbul","Country":"Turkey","Code":"IST","Region":"Europe/Istanbul"},"geometry":{"type":"Point","coordinates":[28.81459999,40.97689819]}},{"type":"Feature","properties":{"Name":"Dubai International Airport","City":"Dubai","Country":"United Arab Emirates","Code":"DXB","Region":"Asia/Dubai"},"geometry":{"type":"Point","coordinates":[55.36439896,25.25279999]}},{"type":"Feature","properties":{"Name":"London Heathrow Airport","City":"London","Country":"United Kingdom","Code":"LHR","Region":"Europe/London"},"geometry":{"type":"Point","coordinates":[-0.461941,51.4706]}},{"type":"Feature","properties":{"Name":"Frankfurt am Main International Airport","City":"Frankfurt","Country":"Germany","Code":"FRA","Region":"Europe/Berlin"},"geometry":{"type":"Point","coordinates":[8.5705556,50.0333333]}},{"type":"Feature","properties":{"Name":"Hartsfield Jackson Atlanta International Airport","City":"Atlanta","Country":"United States","Code":"ATL","Region":"America/New_York"},"geometry":{"type":"Point","coordinates":[-84.42810059,33.63669968]}},{"type":"Feature","properties":{"Name":"Beijing Capital International Airport","City":"Beijing","Country":"China","Code":"PEK","Region":"Asia/Shanghai"},"geometry":{"type":"Point","coordinates":[116.5849991,40.08010101]}},{"type":"Feature","properties":{"Name":"Los Angeles International Airport","City":"Los Angeles","Country":"United States","Code":"LAX","Region":"America/Los_Angeles"},"geometry":{"type":"Point","coordinates":[-118.4079971,33.94250107]}},{"type":"Feature","properties":{"Name":"Chek Lap Kok International Airport","City":"Hong Kong","Country":"Hong Kong","Code":"HKG","Region":"Asia/Hong_Kong"},"geometry":{"type":"Point","coordinates":[113.9150009,22.30890083]}},{"type":"Feature","properties":{"Name":"NAS Fort Worth JRB/Carswell Field","City":"Dallas","Country":"United States","Code":"\\N","Region":"America/New_York"},"geometry":{"type":"Point","coordinates":[-97.4414978,32.76919937]}},{"type":"Feature","properties":{"Name":"Charles de Gaulle International Airport","City":"Paris","Country":"France","Code":"CDG","Region":"Europe/Paris"},"geometry":{"type":"Point","coordinates":[2.549999952,49.01279831]}},{"type":"Feature","properties":{"Name":"Amsterdam Airport Schiphol","City":"Amsterdam","Country":"Netherlands","Code":"AMS","Region":"Europe/Amsterdam"},"geometry":{"type":"Point","coordinates":[4.76388979,52.30860138]}},{"type":"Feature","properties":{"Name":"Singapore Changi Airport","City":"Singapore","Country":"Singapore","Code":"SIN","Region":"Asia/Singapore"},"geometry":{"type":"Point","coordinates":[103.994003,1.35019]}},{"type":"Feature","properties":{"Name":"Indira Gandhi International Airport","City":"Delhi","Country":"India","Code":"DEL","Region":"Asia/Calcutta"},"geometry":{"type":"Point","coordinates":[77.10310364,28.56649971]}},{"type":"Feature","properties":{"Name":"Adolfo Suárez Madrid–Barajas Airport","City":"Madrid","Country":"Spain","Code":"MAD","Region":"Europe/Madrid"},"geometry":{"type":"Point","coordinates":[-3.56264,40.471926]}},{"type":"Feature","properties":{"Name":"Leonardo da Vinci–Fiumicino Airport","City":"Rome","Country":"Italy","Code":"FCO","Region":"Europe/Rome"},"geometry":{"type":"Point","coordinates":[12.2388889,41.8002778]}}],"bbox":null}
